[
  {
    "city": "Amsterdam",
    "lat": "52.3728",
    "lng": "4.8936",
    "country": "Netherlands",
    "iso2": "NL",
    "admin_name": "Noord-Holland",
    "capital": "primary",
    "population": "1459402",
    "population_proper": "917923"
  },
  {
    "city": "Rotterdam",
    "lat": "51.9167",
    "lng": "4.5000",
    "country": "Netherlands",
    "iso2": "NL",
    "admin_name": "Zuid-Holland",
    "capital": "minor",
    "population": "631155",
    "population_proper": "592105"
  },
  {
    "city": "The Hague",
    "lat": "52.0800",
    "lng": "4.3100",
    "country": "Netherlands",
    "iso2": "NL",
    "admin_name": "Zuid-Holland",
    "capital": "primary",
    "population": "548320",
    "population_proper": "548320"
  },
  {
    "city": "Utrecht",
    "lat": "52.0833",
    "lng": "5.1167",
    "country": "Netherlands",
    "iso2": "NL",
    "admin_name": "Utrecht",
    "capital": "admin",
    "population": "359370",
    "population_proper": "359370"
  },
  {
    "city": "Maastricht",
    "lat": "50.8500",
    "lng": "5.6833",
    "country": "Netherlands",
    "iso2": "NL",
    "admin_name": "Limburg",
    "capital": "admin",
    "population": "277721",
    "population_proper": "120227"
  },
  {
    "city": "Eindhoven",
    "lat": "51.4333",
    "lng": "5.4833",
    "country": "Netherlands",
    "iso2": "NL",
    "admin_name": "Noord-Brabant",
    "capital": "minor",
    "population": "235691",
    "population_proper": "235691"
  },
  {
    "city": "Groningen",
    "lat": "53.2167",
    "lng": "6.5667",
    "country": "Netherlands",
    "iso2": "NL",
    "admin_name": "Groningen",
    "capital": "admin",
    "population": "233273",
    "population_proper": "233273"
  },
  {
    "city": "Tilburg",
    "lat": "51.5500",
    "lng": "5.0833",
    "country": "Netherlands",
    "iso2": "NL",
    "admin_name": "Noord-Brabant",
    "capital": "minor",
    "population": "221947",
    "population_proper": "221947"
  },
  {
    "city": "Almere",
    "lat": "52.3667",
    "lng": "5.2167",
    "country": "Netherlands",
    "iso2": "NL",
    "admin_name": "Flevoland",
    "capital": "minor",
    "population": "214715",
    "population_proper": "214715"
  },
  {
    "city": "Breda",
    "lat": "51.5889",
    "lng": "4.7758",
    "country": "Netherlands",
    "iso2": "NL",
    "admin_name": "Noord-Brabant",
    "capital": "minor",
    "population": "184126",
    "population_proper": "184126"
  },
  {
    "city": "Nijmegen",
    "lat": "51.8475",
    "lng": "5.8625",
    "country": "Netherlands",
    "iso2": "NL",
    "admin_name": "Gelderland",
    "capital": "minor",
    "population": "177659",
    "population_proper": "177359"
  },
  {
    "city": "Arnhem",
    "lat": "51.9833",
    "lng": "5.9167",
    "country": "Netherlands",
    "iso2": "NL",
    "admin_name": "Gelderland",
    "capital": "admin",
    "population": "164096",
    "population_proper": "164096"
  },
  {
    "city": "Haarlem",
    "lat": "52.3833",
    "lng": "4.6333",
    "country": "Netherlands",
    "iso2": "NL",
    "admin_name": "Noord-Holland",
    "capital": "admin",
    "population": "162902",
    "population_proper": "162543"
  },
  {
    "city": "Apeldoorn",
    "lat": "52.2167",
    "lng": "5.9667",
    "country": "Netherlands",
    "iso2": "NL",
    "admin_name": "Gelderland",
    "capital": "minor",
    "population": "161156",
    "population_proper": "138945"
  },
  {
    "city": "Enschede",
    "lat": "52.2167",
    "lng": "6.9000",
    "country": "Netherlands",
    "iso2": "NL",
    "admin_name": "Overijssel",
    "capital": "minor",
    "population": "159703",
    "population_proper": "159703"
  },
  {
    "city": "Hoofddorp",
    "lat": "52.3061",
    "lng": "4.6907",
    "country": "Netherlands",
    "iso2": "NL",
    "admin_name": "Noord-Holland",
    "capital": "minor",
    "population": "157789",
    "population_proper": "157789"
  },
  {
    "city": "’s-Hertogenbosch",
    "lat": "51.6833",
    "lng": "5.3000",
    "country": "Netherlands",
    "iso2": "NL",
    "admin_name": "Noord-Brabant",
    "capital": "admin",
    "population": "157486",
    "population_proper": "157486"
  },
  {
    "city": "Amersfoort",
    "lat": "52.1500",
    "lng": "5.3833",
    "country": "Netherlands",
    "iso2": "NL",
    "admin_name": "Utrecht",
    "capital": "minor",
    "population": "157462",
    "population_proper": "157462"
  },
  {
    "city": "Zaanstad",
    "lat": "52.4697",
    "lng": "4.7767",
    "country": "Netherlands",
    "iso2": "NL",
    "admin_name": "Noord-Holland",
    "capital": "",
    "population": "156901",
    "population_proper": "156901"
  },
  {
    "city": "Zwolle",
    "lat": "52.5167",
    "lng": "6.1000",
    "country": "Netherlands",
    "iso2": "NL",
    "admin_name": "Overijssel",
    "capital": "admin",
    "population": "129840",
    "population_proper": "129840"
  },
  {
    "city": "Zoetermeer",
    "lat": "52.0667",
    "lng": "4.5000",
    "country": "Netherlands",
    "iso2": "NL",
    "admin_name": "Zuid-Holland",
    "capital": "minor",
    "population": "125267",
    "population_proper": "125267"
  },
  {
    "city": "Leiden",
    "lat": "52.1600",
    "lng": "4.4900",
    "country": "Netherlands",
    "iso2": "NL",
    "admin_name": "Zuid-Holland",
    "capital": "minor",
    "population": "124899",
    "population_proper": "124093"
  },
  {
    "city": "Leeuwarden",
    "lat": "53.2000",
    "lng": "5.7833",
    "country": "Netherlands",
    "iso2": "NL",
    "admin_name": "Fryslân",
    "capital": "admin",
    "population": "124481",
    "population_proper": "124481"
  },
  {
    "city": "Dordrecht",
    "lat": "51.7958",
    "lng": "4.6783",
    "country": "Netherlands",
    "iso2": "NL",
    "admin_name": "Zuid-Holland",
    "capital": "minor",
    "population": "119115",
    "population_proper": "119115"
  },
  {
    "city": "Alphen aan den Rijn",
    "lat": "52.1333",
    "lng": "4.6667",
    "country": "Netherlands",
    "iso2": "NL",
    "admin_name": "Zuid-Holland",
    "capital": "minor",
    "population": "112587",
    "population_proper": "112587"
  },
  {
    "city": "Alkmaar",
    "lat": "52.6333",
    "lng": "4.7500",
    "country": "Netherlands",
    "iso2": "NL",
    "admin_name": "Noord-Holland",
    "capital": "minor",
    "population": "109896",
    "population_proper": "109896"
  },
  {
    "city": "Emmen",
    "lat": "52.7833",
    "lng": "6.9000",
    "country": "Netherlands",
    "iso2": "NL",
    "admin_name": "Drenthe",
    "capital": "minor",
    "population": "107471",
    "population_proper": "107024"
  },
  {
    "city": "Delft",
    "lat": "52.0117",
    "lng": "4.3592",
    "country": "Netherlands",
    "iso2": "NL",
    "admin_name": "Zuid-Holland",
    "capital": "minor",
    "population": "103581",
    "population_proper": "103581"
  },
  {
    "city": "Deventer",
    "lat": "52.2500",
    "lng": "6.1500",
    "country": "Netherlands",
    "iso2": "NL",
    "admin_name": "Overijssel",
    "capital": "minor",
    "population": "101236",
    "population_proper": "101236"
  },
  {
    "city": "Helmond",
    "lat": "51.4833",
    "lng": "5.6500",
    "country": "Netherlands",
    "iso2": "NL",
    "admin_name": "Noord-Brabant",
    "capital": "minor",
    "population": "92627",
    "population_proper": "92627"
  },
  {
    "city": "Amstelveen",
    "lat": "52.3000",
    "lng": "4.8500",
    "country": "Netherlands",
    "iso2": "NL",
    "admin_name": "Noord-Holland",
    "capital": "minor",
    "population": "91675",
    "population_proper": "90829"
  },
  {
    "city": "Hilversum",
    "lat": "52.2333",
    "lng": "5.1667",
    "country": "Netherlands",
    "iso2": "NL",
    "admin_name": "Noord-Holland",
    "capital": "minor",
    "population": "91235",
    "population_proper": "91235"
  },
  {
    "city": "Heerlen",
    "lat": "50.8833",
    "lng": "5.9833",
    "country": "Netherlands",
    "iso2": "NL",
    "admin_name": "Limburg",
    "capital": "minor",
    "population": "86936",
    "population_proper": "86936"
  },
  {
    "city": "Purmerend",
    "lat": "52.5000",
    "lng": "4.9500",
    "country": "Netherlands",
    "iso2": "NL",
    "admin_name": "Noord-Holland",
    "capital": "minor",
    "population": "81515",
    "population_proper": "81515"
  },
  {
    "city": "Hengelo",
    "lat": "52.2656",
    "lng": "6.7931",
    "country": "Netherlands",
    "iso2": "NL",
    "admin_name": "Overijssel",
    "capital": "minor",
    "population": "81049",
    "population_proper": "81049"
  },
  {
    "city": "Lelystad",
    "lat": "52.5000",
    "lng": "5.4833",
    "country": "Netherlands",
    "iso2": "NL",
    "admin_name": "Flevoland",
    "capital": "admin",
    "population": "79811",
    "population_proper": "79811"
  },
  {
    "city": "Schiedam",
    "lat": "51.9167",
    "lng": "4.4000",
    "country": "Netherlands",
    "iso2": "NL",
    "admin_name": "Zuid-Holland",
    "capital": "minor",
    "population": "79279",
    "population_proper": "79279"
  },
  {
    "city": "Zaandam",
    "lat": "52.4333",
    "lng": "4.8333",
    "country": "Netherlands",
    "iso2": "NL",
    "admin_name": "Noord-Holland",
    "capital": "minor",
    "population": "78682",
    "population_proper": "78682"
  },
  {
    "city": "Vlaardingen",
    "lat": "51.9000",
    "lng": "4.3500",
    "country": "Netherlands",
    "iso2": "NL",
    "admin_name": "Zuid-Holland",
    "capital": "minor",
    "population": "73924",
    "population_proper": "73924"
  },
  {
    "city": "Gouda",
    "lat": "52.0111",
    "lng": "4.7111",
    "country": "Netherlands",
    "iso2": "NL",
    "admin_name": "Zuid-Holland",
    "capital": "minor",
    "population": "73681",
    "population_proper": "73681"
  },
  {
    "city": "Hoorn",
    "lat": "52.6500",
    "lng": "5.0667",
    "country": "Netherlands",
    "iso2": "NL",
    "admin_name": "Noord-Holland",
    "capital": "minor",
    "population": "73619",
    "population_proper": "73619"
  },
  {
    "city": "Almelo",
    "lat": "52.3500",
    "lng": "6.6667",
    "country": "Netherlands",
    "iso2": "NL",
    "admin_name": "Overijssel",
    "capital": "minor",
    "population": "73132",
    "population_proper": "73132"
  },
  {
    "city": "Spijkenisse",
    "lat": "51.8500",
    "lng": "4.3333",
    "country": "Netherlands",
    "iso2": "NL",
    "admin_name": "Zuid-Holland",
    "capital": "minor",
    "population": "72740",
    "population_proper": "72740"
  },
  {
    "city": "Assen",
    "lat": "53.0000",
    "lng": "6.5667",
    "country": "Netherlands",
    "iso2": "NL",
    "admin_name": "Drenthe",
    "capital": "admin",
    "population": "68836",
    "population_proper": "68836"
  },
  {
    "city": "Velsen-Zuid",
    "lat": "52.4667",
    "lng": "4.6167",
    "country": "Netherlands",
    "iso2": "NL",
    "admin_name": "Noord-Holland",
    "capital": "",
    "population": "68617",
    "population_proper": "68617"
  },
  {
    "city": "Capelle aan den IJssel",
    "lat": "51.9333",
    "lng": "4.5833",
    "country": "Netherlands",
    "iso2": "NL",
    "admin_name": "Zuid-Holland",
    "capital": "minor",
    "population": "67319",
    "population_proper": "67319"
  },
  {
    "city": "Veenendaal",
    "lat": "52.0167",
    "lng": "5.5500",
    "country": "Netherlands",
    "iso2": "NL",
    "admin_name": "Utrecht",
    "capital": "minor",
    "population": "66912",
    "population_proper": "66912"
  },
  {
    "city": "Katwijk",
    "lat": "52.2000",
    "lng": "4.4167",
    "country": "Netherlands",
    "iso2": "NL",
    "admin_name": "Zuid-Holland",
    "capital": "minor",
    "population": "65995",
    "population_proper": "65995"
  },
  {
    "city": "Zeist",
    "lat": "52.0906",
    "lng": "5.2331",
    "country": "Netherlands",
    "iso2": "NL",
    "admin_name": "Utrecht",
    "capital": "minor",
    "population": "65043",
    "population_proper": "65043"
  },
  {
    "city": "Nieuwegein",
    "lat": "52.0333",
    "lng": "5.0833",
    "country": "Netherlands",
    "iso2": "NL",
    "admin_name": "Utrecht",
    "capital": "minor",
    "population": "63866",
    "population_proper": "63866"
  },
  {
    "city": "Scheveningen",
    "lat": "52.1081",
    "lng": "4.2731",
    "country": "Netherlands",
    "iso2": "NL",
    "admin_name": "Zuid-Holland",
    "capital": "",
    "population": "58850",
    "population_proper": "58850"
  },
  {
    "city": "Heerhugowaard",
    "lat": "52.6667",
    "lng": "4.8333",
    "country": "Netherlands",
    "iso2": "NL",
    "admin_name": "Noord-Holland",
    "capital": "minor",
    "population": "58387",
    "population_proper": "58387"
  },
  {
    "city": "Roermond",
    "lat": "51.2000",
    "lng": "5.9833",
    "country": "Netherlands",
    "iso2": "NL",
    "admin_name": "Limburg",
    "capital": "minor",
    "population": "57308",
    "population_proper": "57308"
  },
  {
    "city": "Oosterhout",
    "lat": "51.6431",
    "lng": "4.8569",
    "country": "Netherlands",
    "iso2": "NL",
    "admin_name": "Noord-Brabant",
    "capital": "minor",
    "population": "56206",
    "population_proper": "56206"
  },
  {
    "city": "Rijswijk",
    "lat": "52.0456",
    "lng": "4.3300",
    "country": "Netherlands",
    "iso2": "NL",
    "admin_name": "Zuid-Holland",
    "capital": "minor",
    "population": "55220",
    "population_proper": "55220"
  },
  {
    "city": "Houten",
    "lat": "52.0333",
    "lng": "5.1667",
    "country": "Netherlands",
    "iso2": "NL",
    "admin_name": "Utrecht",
    "capital": "minor",
    "population": "50223",
    "population_proper": "50223"
  },
  {
    "city": "Sittard",
    "lat": "51.0000",
    "lng": "5.8667",
    "country": "Netherlands",
    "iso2": "NL",
    "admin_name": "Limburg",
    "capital": "minor",
    "population": "49483",
    "population_proper": "49483"
  },
  {
    "city": "Harderwijk",
    "lat": "52.3500",
    "lng": "5.6167",
    "country": "Netherlands",
    "iso2": "NL",
    "admin_name": "Gelderland",
    "capital": "minor",
    "population": "48726",
    "population_proper": "48726"
  },
  {
    "city": "Barendrecht",
    "lat": "51.8500",
    "lng": "4.5333",
    "country": "Netherlands",
    "iso2": "NL",
    "admin_name": "Zuid-Holland",
    "capital": "minor",
    "population": "48673",
    "population_proper": "48643"
  },
  {
    "city": "IJmuiden",
    "lat": "52.4586",
    "lng": "4.6194",
    "country": "Netherlands",
    "iso2": "NL",
    "admin_name": "Noord-Holland",
    "capital": "minor",
    "population": "48320",
    "population_proper": "48320"
  },
  {
    "city": "Middelburg",
    "lat": "51.5000",
    "lng": "3.6167",
    "country": "Netherlands",
    "iso2": "NL",
    "admin_name": "Zeeland",
    "capital": "admin",
    "population": "47939",
    "population_proper": "47939"
  },
  {
    "city": "Zutphen",
    "lat": "52.1400",
    "lng": "6.1950",
    "country": "Netherlands",
    "iso2": "NL",
    "admin_name": "Gelderland",
    "capital": "minor",
    "population": "47423",
    "population_proper": "47423"
  },
  {
    "city": "Soest",
    "lat": "52.1833",
    "lng": "5.3000",
    "country": "Netherlands",
    "iso2": "NL",
    "admin_name": "Utrecht",
    "capital": "minor",
    "population": "46906",
    "population_proper": "46906"
  },
  {
    "city": "Ridderkerk",
    "lat": "51.8667",
    "lng": "4.6000",
    "country": "Netherlands",
    "iso2": "NL",
    "admin_name": "Zuid-Holland",
    "capital": "minor",
    "population": "46671",
    "population_proper": "46671"
  },
  {
    "city": "Schagen",
    "lat": "52.7833",
    "lng": "4.8000",
    "country": "Netherlands",
    "iso2": "NL",
    "admin_name": "Noord-Holland",
    "capital": "minor",
    "population": "46553",
    "population_proper": "46532"
  },
  {
    "city": "Kerkrade",
    "lat": "50.8667",
    "lng": "6.0667",
    "country": "Netherlands",
    "iso2": "NL",
    "admin_name": "Limburg",
    "capital": "minor",
    "population": "45642",
    "population_proper": "45442"
  },
  {
    "city": "Veldhoven",
    "lat": "51.4200",
    "lng": "5.4050",
    "country": "Netherlands",
    "iso2": "NL",
    "admin_name": "Noord-Brabant",
    "capital": "minor",
    "population": "45500",
    "population_proper": "45500"
  },
  {
    "city": "Zwijndrecht",
    "lat": "51.8167",
    "lng": "4.6500",
    "country": "Netherlands",
    "iso2": "NL",
    "admin_name": "Zuid-Holland",
    "capital": "minor",
    "population": "44775",
    "population_proper": "44775"
  },
  {
    "city": "Zevenaar",
    "lat": "51.9167",
    "lng": "6.0667",
    "country": "Netherlands",
    "iso2": "NL",
    "admin_name": "Gelderland",
    "capital": "minor",
    "population": "44096",
    "population_proper": "44096"
  },
  {
    "city": "Noordwijk",
    "lat": "52.2333",
    "lng": "4.4333",
    "country": "Netherlands",
    "iso2": "NL",
    "admin_name": "Zuid-Holland",
    "capital": "minor",
    "population": "44062",
    "population_proper": "44062"
  },
  {
    "city": "Etten-Leur",
    "lat": "51.5667",
    "lng": "4.6333",
    "country": "Netherlands",
    "iso2": "NL",
    "admin_name": "Noord-Brabant",
    "capital": "minor",
    "population": "43869",
    "population_proper": "43869"
  },
  {
    "city": "Tiel",
    "lat": "51.8833",
    "lng": "5.4333",
    "country": "Netherlands",
    "iso2": "NL",
    "admin_name": "Gelderland",
    "capital": "minor",
    "population": "41978",
    "population_proper": "41920"
  },
  {
    "city": "Beverwijk",
    "lat": "52.4833",
    "lng": "4.6500",
    "country": "Netherlands",
    "iso2": "NL",
    "admin_name": "Noord-Holland",
    "capital": "minor",
    "population": "41863",
    "population_proper": "41863"
  },
  {
    "city": "Huizen",
    "lat": "52.3000",
    "lng": "5.2500",
    "country": "Netherlands",
    "iso2": "NL",
    "admin_name": "Noord-Holland",
    "capital": "minor",
    "population": "41090",
    "population_proper": "41090"
  },
  {
    "city": "Hellevoetsluis",
    "lat": "51.8167",
    "lng": "4.1333",
    "country": "Netherlands",
    "iso2": "NL",
    "admin_name": "Zuid-Holland",
    "capital": "minor",
    "population": "40312",
    "population_proper": "40312"
  },
  {
    "city": "Maarssen",
    "lat": "52.1351",
    "lng": "5.0413",
    "country": "Netherlands",
    "iso2": "NL",
    "admin_name": "Utrecht",
    "capital": "minor",
    "population": "39752",
    "population_proper": "39752"
  },
  {
    "city": "Wageningen",
    "lat": "51.9667",
    "lng": "5.6667",
    "country": "Netherlands",
    "iso2": "NL",
    "admin_name": "Gelderland",
    "capital": "minor",
    "population": "39635",
    "population_proper": "39635"
  },
  {
    "city": "Heemskerk",
    "lat": "52.5167",
    "lng": "4.6667",
    "country": "Netherlands",
    "iso2": "NL",
    "admin_name": "Noord-Holland",
    "capital": "minor",
    "population": "39191",
    "population_proper": "39191"
  },
  {
    "city": "Veghel",
    "lat": "51.6167",
    "lng": "5.5500",
    "country": "Netherlands",
    "iso2": "NL",
    "admin_name": "Noord-Brabant",
    "capital": "minor",
    "population": "38077",
    "population_proper": "38077"
  },
  {
    "city": "Teijlingen",
    "lat": "52.2150",
    "lng": "4.5103",
    "country": "Netherlands",
    "iso2": "NL",
    "admin_name": "Zuid-Holland",
    "capital": "",
    "population": "37791",
    "population_proper": "37791"
  },
  {
    "city": "Landgraaf",
    "lat": "50.9083",
    "lng": "6.0297",
    "country": "Netherlands",
    "iso2": "NL",
    "admin_name": "Limburg",
    "capital": "minor",
    "population": "37591",
    "population_proper": "37262"
  },
  {
    "city": "Gorinchem",
    "lat": "51.8306",
    "lng": "4.9742",
    "country": "Netherlands",
    "iso2": "NL",
    "admin_name": "Zuid-Holland",
    "capital": "minor",
    "population": "37410",
    "population_proper": "37410"
  },
  {
    "city": "Hoogvliet",
    "lat": "51.8667",
    "lng": "4.3500",
    "country": "Netherlands",
    "iso2": "NL",
    "admin_name": "Zuid-Holland",
    "capital": "",
    "population": "35575",
    "population_proper": "35575"
  },
  {
    "city": "Berg en Dal",
    "lat": "51.8167",
    "lng": "5.9167",
    "country": "Netherlands",
    "iso2": "NL",
    "admin_name": "Gelderland",
    "capital": "",
    "population": "35010",
    "population_proper": "35010"
  },
  {
    "city": "Maassluis",
    "lat": "51.9333",
    "lng": "4.2333",
    "country": "Netherlands",
    "iso2": "NL",
    "admin_name": "Zuid-Holland",
    "capital": "minor",
    "population": "33567",
    "population_proper": "33567"
  },
  {
    "city": "Bussum",
    "lat": "52.2833",
    "lng": "5.1667",
    "country": "Netherlands",
    "iso2": "NL",
    "admin_name": "Noord-Holland",
    "capital": "minor",
    "population": "32410",
    "population_proper": "32410"
  },
  {
    "city": "Papendrecht",
    "lat": "51.8333",
    "lng": "4.6833",
    "country": "Netherlands",
    "iso2": "NL",
    "admin_name": "Zuid-Holland",
    "capital": "minor",
    "population": "32290",
    "population_proper": "32171"
  },
  {
    "city": "Aalsmeer",
    "lat": "52.2667",
    "lng": "4.7500",
    "country": "Netherlands",
    "iso2": "NL",
    "admin_name": "Noord-Holland",
    "capital": "minor",
    "population": "31991",
    "population_proper": "31991"
  },
  {
    "city": "Oldenzaal",
    "lat": "52.3167",
    "lng": "6.9333",
    "country": "Netherlands",
    "iso2": "NL",
    "admin_name": "Overijssel",
    "capital": "minor",
    "population": "31840",
    "population_proper": "31701"
  },
  {
    "city": "Vught",
    "lat": "51.6500",
    "lng": "5.3000",
    "country": "Netherlands",
    "iso2": "NL",
    "admin_name": "Noord-Brabant",
    "capital": "minor",
    "population": "31669",
    "population_proper": "31669"
  },
  {
    "city": "Nieuw-Vennep",
    "lat": "52.2644",
    "lng": "4.6347",
    "country": "Netherlands",
    "iso2": "NL",
    "admin_name": "Noord-Holland",
    "capital": "",
    "population": "31415",
    "population_proper": "31415"
  },
  {
    "city": "Waddinxveen",
    "lat": "52.0500",
    "lng": "4.6500",
    "country": "Netherlands",
    "iso2": "NL",
    "admin_name": "Zuid-Holland",
    "capital": "minor",
    "population": "31342",
    "population_proper": "31342"
  },
  {
    "city": "Diemen",
    "lat": "52.3333",
    "lng": "4.9667",
    "country": "Netherlands",
    "iso2": "NL",
    "admin_name": "Noord-Holland",
    "capital": "minor",
    "population": "31334",
    "population_proper": "31334"
  },
  {
    "city": "Hendrik-Ido-Ambacht",
    "lat": "51.8500",
    "lng": "4.6333",
    "country": "Netherlands",
    "iso2": "NL",
    "admin_name": "Zuid-Holland",
    "capital": "minor",
    "population": "31258",
    "population_proper": "31258"
  },
  {
    "city": "Rosmalen",
    "lat": "51.7167",
    "lng": "5.3667",
    "country": "Netherlands",
    "iso2": "NL",
    "admin_name": "Noord-Brabant",
    "capital": "",
    "population": "31219",
    "population_proper": "31219"
  },
  {
    "city": "Best",
    "lat": "51.5167",
    "lng": "5.4000",
    "country": "Netherlands",
    "iso2": "NL",
    "admin_name": "Noord-Brabant",
    "capital": "minor",
    "population": "30216",
    "population_proper": "30216"
  },
  {
    "city": "Uithoorn",
    "lat": "52.2333",
    "lng": "4.8333",
    "country": "Netherlands",
    "iso2": "NL",
    "admin_name": "Noord-Holland",
    "capital": "minor",
    "population": "30206",
    "population_proper": "30206"
  },
  {
    "city": "Krimpen aan den IJssel",
    "lat": "51.9167",
    "lng": "4.5833",
    "country": "Netherlands",
    "iso2": "NL",
    "admin_name": "Zuid-Holland",
    "capital": "minor",
    "population": "29410",
    "population_proper": "29410"
  },
  {
    "city": "Culemborg",
    "lat": "51.9500",
    "lng": "5.2333",
    "country": "Netherlands",
    "iso2": "NL",
    "admin_name": "Gelderland",
    "capital": "minor",
    "population": "29121",
    "population_proper": "29121"
  },
  {
    "city": "Brunssum",
    "lat": "50.9500",
    "lng": "5.9667",
    "country": "Netherlands",
    "iso2": "NL",
    "admin_name": "Limburg",
    "capital": "minor",
    "population": "28103",
    "population_proper": "27670"
  },
  {
    "city": "Geldrop",
    "lat": "51.4222",
    "lng": "5.5578",
    "country": "Netherlands",
    "iso2": "NL",
    "admin_name": "Noord-Brabant",
    "capital": "minor",
    "population": "28001",
    "population_proper": "28001"
  },
  {
    "city": "Langedijk",
    "lat": "52.6936",
    "lng": "4.7944",
    "country": "Netherlands",
    "iso2": "NL",
    "admin_name": "Noord-Holland",
    "capital": "",
    "population": "27992",
    "population_proper": "27992"
  },
  {
    "city": "Vleuten",
    "lat": "52.1081",
    "lng": "5.0150",
    "country": "Netherlands",
    "iso2": "NL",
    "admin_name": "Utrecht",
    "capital": "",
    "population": "27815",
    "population_proper": "27815"
  },
  {
    "city": "Heemstede",
    "lat": "52.3500",
    "lng": "4.6167",
    "country": "Netherlands",
    "iso2": "NL",
    "admin_name": "Noord-Holland",
    "capital": "minor",
    "population": "27545",
    "population_proper": "27545"
  },
  {
    "city": "Leiderdorp",
    "lat": "52.1667",
    "lng": "4.5333",
    "country": "Netherlands",
    "iso2": "NL",
    "admin_name": "Zuid-Holland",
    "capital": "minor",
    "population": "27377",
    "population_proper": "27377"
  },
  {
    "city": "Blerick",
    "lat": "51.3667",
    "lng": "6.1500",
    "country": "Netherlands",
    "iso2": "NL",
    "admin_name": "Limburg",
    "capital": "",
    "population": "27330",
    "population_proper": "27330"
  },
  {
    "city": "Pijnacker",
    "lat": "52.0167",
    "lng": "4.4333",
    "country": "Netherlands",
    "iso2": "NL",
    "admin_name": "Zuid-Holland",
    "capital": "minor",
    "population": "27130",
    "population_proper": "27130"
  },
  {
    "city": "Dongen",
    "lat": "51.6333",
    "lng": "4.9333",
    "country": "Netherlands",
    "iso2": "NL",
    "admin_name": "Noord-Brabant",
    "capital": "minor",
    "population": "26368",
    "population_proper": "26368"
  },
  {
    "city": "Voorschoten",
    "lat": "52.1333",
    "lng": "4.4500",
    "country": "Netherlands",
    "iso2": "NL",
    "admin_name": "Zuid-Holland",
    "capital": "minor",
    "population": "25650",
    "population_proper": "25650"
  },
  {
    "city": "Sliedrecht",
    "lat": "51.8167",
    "lng": "4.7667",
    "country": "Netherlands",
    "iso2": "NL",
    "admin_name": "Zuid-Holland",
    "capital": "minor",
    "population": "25597",
    "population_proper": "25597"
  },
  {
    "city": "Oegstgeest",
    "lat": "52.1833",
    "lng": "4.4667",
    "country": "Netherlands",
    "iso2": "NL",
    "admin_name": "Zuid-Holland",
    "capital": "minor",
    "population": "25064",
    "population_proper": "25064"
  },
  {
    "city": "Stein",
    "lat": "50.9667",
    "lng": "5.7667",
    "country": "Netherlands",
    "iso2": "NL",
    "admin_name": "Limburg",
    "capital": "minor",
    "population": "24961",
    "population_proper": "24875"
  },
  {
    "city": "Baarn",
    "lat": "52.2167",
    "lng": "5.2833",
    "country": "Netherlands",
    "iso2": "NL",
    "admin_name": "Utrecht",
    "capital": "minor",
    "population": "24792",
    "population_proper": "24792"
  },
  {
    "city": "Oud-Beijerland",
    "lat": "51.8167",
    "lng": "4.4000",
    "country": "Netherlands",
    "iso2": "NL",
    "admin_name": "Zuid-Holland",
    "capital": "minor",
    "population": "24301",
    "population_proper": "24301"
  },
  {
    "city": "Heiloo",
    "lat": "52.6000",
    "lng": "4.7167",
    "country": "Netherlands",
    "iso2": "NL",
    "admin_name": "Noord-Holland",
    "capital": "minor",
    "population": "24144",
    "population_proper": "24144"
  },
  {
    "city": "Borne",
    "lat": "52.3000",
    "lng": "6.7500",
    "country": "Netherlands",
    "iso2": "NL",
    "admin_name": "Overijssel",
    "capital": "minor",
    "population": "23668",
    "population_proper": "23668"
  },
  {
    "city": "Lisse",
    "lat": "52.2500",
    "lng": "4.5500",
    "country": "Netherlands",
    "iso2": "NL",
    "admin_name": "Zuid-Holland",
    "capital": "minor",
    "population": "22982",
    "population_proper": "22982"
  },
  {
    "city": "Volendam",
    "lat": "52.4994",
    "lng": "5.0675",
    "country": "Netherlands",
    "iso2": "NL",
    "admin_name": "Noord-Holland",
    "capital": "minor",
    "population": "22715",
    "population_proper": "22715"
  },
  {
    "city": "Hillegom",
    "lat": "52.2833",
    "lng": "4.5833",
    "country": "Netherlands",
    "iso2": "NL",
    "admin_name": "Zuid-Holland",
    "capital": "minor",
    "population": "22197",
    "population_proper": "22197"
  },
  {
    "city": "’s-Gravenzande",
    "lat": "52.0000",
    "lng": "4.1667",
    "country": "Netherlands",
    "iso2": "NL",
    "admin_name": "Zuid-Holland",
    "capital": "",
    "population": "22190",
    "population_proper": "22190"
  },
  {
    "city": "De Meern",
    "lat": "52.0781",
    "lng": "5.0281",
    "country": "Netherlands",
    "iso2": "NL",
    "admin_name": "Utrecht",
    "capital": "",
    "population": "21815",
    "population_proper": "21815"
  },
  {
    "city": "Nuenen",
    "lat": "51.4733",
    "lng": "5.5467",
    "country": "Netherlands",
    "iso2": "NL",
    "admin_name": "Noord-Brabant",
    "capital": "minor",
    "population": "20580",
    "population_proper": "20580"
  },
  {
    "city": "Alblasserdam",
    "lat": "51.8702",
    "lng": "4.6667",
    "country": "Netherlands",
    "iso2": "NL",
    "admin_name": "Zuid-Holland",
    "capital": "minor",
    "population": "20136",
    "population_proper": "20136"
  },
  {
    "city": "Weesp",
    "lat": "52.3000",
    "lng": "5.0500",
    "country": "Netherlands",
    "iso2": "NL",
    "admin_name": "Noord-Holland",
    "capital": "minor",
    "population": "19334",
    "population_proper": "19334"
  },
  {
    "city": "Nootdorp",
    "lat": "52.0333",
    "lng": "4.4000",
    "country": "Netherlands",
    "iso2": "NL",
    "admin_name": "Zuid-Holland",
    "capital": "",
    "population": "19000",
    "population_proper": "19000"
  },
  {
    "city": "Krommenie",
    "lat": "52.5000",
    "lng": "4.7667",
    "country": "Netherlands",
    "iso2": "NL",
    "admin_name": "Noord-Holland",
    "capital": "",
    "population": "18955",
    "population_proper": "18955"
  },
  {
    "city": "Naaldwijk",
    "lat": "51.9931",
    "lng": "4.2050",
    "country": "Netherlands",
    "iso2": "NL",
    "admin_name": "Zuid-Holland",
    "capital": "minor",
    "population": "18858",
    "population_proper": "18858"
  },
  {
    "city": "Edam",
    "lat": "52.5167",
    "lng": "5.0500",
    "country": "Netherlands",
    "iso2": "NL",
    "admin_name": "Noord-Holland",
    "capital": "",
    "population": "18828",
    "population_proper": "18828"
  },
  {
    "city": "Enkhuizen",
    "lat": "52.7000",
    "lng": "5.3000",
    "country": "Netherlands",
    "iso2": "NL",
    "admin_name": "Noord-Holland",
    "capital": "minor",
    "population": "18637",
    "population_proper": "18637"
  },
  {
    "city": "Hardinxveld-Giessendam",
    "lat": "51.8167",
    "lng": "4.8333",
    "country": "Netherlands",
    "iso2": "NL",
    "admin_name": "Zuid-Holland",
    "capital": "minor",
    "population": "18413",
    "population_proper": "18413"
  },
  {
    "city": "Naarden",
    "lat": "52.2953",
    "lng": "5.1622",
    "country": "Netherlands",
    "iso2": "NL",
    "admin_name": "Noord-Holland",
    "capital": "minor",
    "population": "17555",
    "population_proper": "17555"
  },
  {
    "city": "Waalre",
    "lat": "51.4000",
    "lng": "5.4667",
    "country": "Netherlands",
    "iso2": "NL",
    "admin_name": "Noord-Brabant",
    "capital": "minor",
    "population": "17544",
    "population_proper": "17544"
  },
  {
    "city": "Rijen",
    "lat": "51.5833",
    "lng": "4.9500",
    "country": "Netherlands",
    "iso2": "NL",
    "admin_name": "Noord-Brabant",
    "capital": "minor",
    "population": "16800",
    "population_proper": "16800"
  },
  {
    "city": "Glanerbrug",
    "lat": "52.2150",
    "lng": "6.9742",
    "country": "Netherlands",
    "iso2": "NL",
    "admin_name": "Overijssel",
    "capital": "",
    "population": "16715",
    "population_proper": "16715"
  },
  {
    "city": "Beek",
    "lat": "50.9333",
    "lng": "5.8000",
    "country": "Netherlands",
    "iso2": "NL",
    "admin_name": "Limburg",
    "capital": "minor",
    "population": "15929",
    "population_proper": "15875"
  },
  {
    "city": "Schaesberg",
    "lat": "50.9000",
    "lng": "6.0167",
    "country": "Netherlands",
    "iso2": "NL",
    "admin_name": "Limburg",
    "capital": "",
    "population": "15900",
    "population_proper": "15900"
  },
  {
    "city": "Boskoop",
    "lat": "52.0667",
    "lng": "4.6500",
    "country": "Netherlands",
    "iso2": "NL",
    "admin_name": "Zuid-Holland",
    "capital": "minor",
    "population": "15045",
    "population_proper": "15045"
  },
  {
    "city": "Westervoort",
    "lat": "51.9667",
    "lng": "5.9667",
    "country": "Netherlands",
    "iso2": "NL",
    "admin_name": "Gelderland",
    "capital": "minor",
    "population": "15014",
    "population_proper": "15014"
  },
  {
    "city": "Sassenheim",
    "lat": "52.2258",
    "lng": "4.5225",
    "country": "Netherlands",
    "iso2": "NL",
    "admin_name": "Zuid-Holland",
    "capital": "minor",
    "population": "14886",
    "population_proper": "14886"
  },
  {
    "city": "Julianadorp",
    "lat": "52.8833",
    "lng": "4.7333",
    "country": "Netherlands",
    "iso2": "NL",
    "admin_name": "Noord-Holland",
    "capital": "",
    "population": "13925",
    "population_proper": "13925"
  },
  {
    "city": "Badhoevedorp",
    "lat": "52.3333",
    "lng": "4.7833",
    "country": "Netherlands",
    "iso2": "NL",
    "admin_name": "Noord-Holland",
    "capital": "",
    "population": "13290",
    "population_proper": "13290"
  },
  {
    "city": "Raamsdonksveer",
    "lat": "51.6833",
    "lng": "4.8667",
    "country": "Netherlands",
    "iso2": "NL",
    "admin_name": "Noord-Brabant",
    "capital": "minor",
    "population": "12470",
    "population_proper": "12470"
  },
  {
    "city": "Rozenburg",
    "lat": "51.9058",
    "lng": "4.2486",
    "country": "Netherlands",
    "iso2": "NL",
    "admin_name": "Zuid-Holland",
    "capital": "",
    "population": "12455",
    "population_proper": "12455"
  },
  {
    "city": "Blaricum",
    "lat": "52.2667",
    "lng": "5.2500",
    "country": "Netherlands",
    "iso2": "NL",
    "admin_name": "Noord-Holland",
    "capital": "minor",
    "population": "11952",
    "population_proper": "11952"
  },
  {
    "city": "Schoonhoven",
    "lat": "51.9500",
    "lng": "4.8500",
    "country": "Netherlands",
    "iso2": "NL",
    "admin_name": "Zuid-Holland",
    "capital": "minor",
    "population": "11922",
    "population_proper": "11922"
  },
  {
    "city": "Laren",
    "lat": "52.2500",
    "lng": "5.2333",
    "country": "Netherlands",
    "iso2": "NL",
    "admin_name": "Noord-Holland",
    "capital": "minor",
    "population": "11400",
    "population_proper": "11400"
  },
  {
    "city": "Koog aan de Zaan",
    "lat": "52.4667",
    "lng": "4.8000",
    "country": "Netherlands",
    "iso2": "NL",
    "admin_name": "Noord-Holland",
    "capital": "",
    "population": "11225",
    "population_proper": "11225"
  },
  {
    "city": "Doesburg",
    "lat": "52.0167",
    "lng": "6.1333",
    "country": "Netherlands",
    "iso2": "NL",
    "admin_name": "Gelderland",
    "capital": "minor",
    "population": "11148",
    "population_proper": "11064"
  },
  {
    "city": "Leidschendam",
    "lat": "52.0833",
    "lng": "4.4000",
    "country": "Netherlands",
    "iso2": "NL",
    "admin_name": "Zuid-Holland",
    "capital": "minor",
    "population": "10482",
    "population_proper": "10482"
  },
  {
    "city": "Heerlerbaan",
    "lat": "50.8692",
    "lng": "6.0103",
    "country": "Netherlands",
    "iso2": "NL",
    "admin_name": "Limburg",
    "capital": "",
    "population": "9872",
    "population_proper": "9872"
  },
  {
    "city": "Nieuw-Lekkerland",
    "lat": "51.8833",
    "lng": "4.6833",
    "country": "Netherlands",
    "iso2": "NL",
    "admin_name": "Zuid-Holland",
    "capital": "",
    "population": "9541",
    "population_proper": "9541"
  },
  {
    "city": "Kudelstaart",
    "lat": "52.2339",
    "lng": "4.7483",
    "country": "Netherlands",
    "iso2": "NL",
    "admin_name": "Noord-Holland",
    "capital": "",
    "population": "9250",
    "population_proper": "9250"
  },
  {
    "city": "Zaandijk",
    "lat": "52.4667",
    "lng": "4.8000",
    "country": "Netherlands",
    "iso2": "NL",
    "admin_name": "Noord-Holland",
    "capital": "",
    "population": "8600",
    "population_proper": "8600"
  },
  {
    "city": "Zwanenburg",
    "lat": "52.3833",
    "lng": "4.7500",
    "country": "Netherlands",
    "iso2": "NL",
    "admin_name": "Noord-Holland",
    "capital": "",
    "population": "7935",
    "population_proper": "7935"
  },
  {
    "city": "Limmen",
    "lat": "52.5667",
    "lng": "4.7000",
    "country": "Netherlands",
    "iso2": "NL",
    "admin_name": "Noord-Holland",
    "capital": "",
    "population": "7635",
    "population_proper": "7635"
  },
  {
    "city": "Bolnes",
    "lat": "51.8947",
    "lng": "4.5788",
    "country": "Netherlands",
    "iso2": "NL",
    "admin_name": "Zuid-Holland",
    "capital": "",
    "population": "7300",
    "population_proper": "7300"
  },
  {
    "city": "Santpoort-Noord",
    "lat": "52.4225",
    "lng": "4.6261",
    "country": "Netherlands",
    "iso2": "NL",
    "admin_name": "Noord-Holland",
    "capital": "",
    "population": "7240",
    "population_proper": "7240"
  },
  {
    "city": "Soesterberg",
    "lat": "52.1194",
    "lng": "5.2831",
    "country": "Netherlands",
    "iso2": "NL",
    "admin_name": "Utrecht",
    "capital": "",
    "population": "7210",
    "population_proper": "7210"
  },
  {
    "city": "Reuver",
    "lat": "51.2850",
    "lng": "6.0792",
    "country": "Netherlands",
    "iso2": "NL",
    "admin_name": "Limburg",
    "capital": "minor",
    "population": "6120",
    "population_proper": "6120"
  },
  {
    "city": "Surhuisterveen",
    "lat": "53.1833",
    "lng": "6.1667",
    "country": "Netherlands",
    "iso2": "NL",
    "admin_name": "Fryslân",
    "capital": "",
    "population": "6050",
    "population_proper": "6050"
  },
  {
    "city": "Susteren",
    "lat": "51.0667",
    "lng": "5.8667",
    "country": "Netherlands",
    "iso2": "NL",
    "admin_name": "Limburg",
    "capital": "",
    "population": "5965",
    "population_proper": "5965"
  },
  {
    "city": "Hintham",
    "lat": "51.7000",
    "lng": "5.3500",
    "country": "Netherlands",
    "iso2": "NL",
    "admin_name": "Noord-Brabant",
    "capital": "",
    "population": "5910",
    "population_proper": "5910"
  },
  {
    "city": "Meteren",
    "lat": "51.8639",
    "lng": "5.2825",
    "country": "Netherlands",
    "iso2": "NL",
    "admin_name": "Gelderland",
    "capital": "",
    "population": "5398",
    "population_proper": "5398"
  },
  {
    "city": "Teteringen",
    "lat": "51.6167",
    "lng": "4.8333",
    "country": "Netherlands",
    "iso2": "NL",
    "admin_name": "Noord-Brabant",
    "capital": "",
    "population": "5371",
    "population_proper": "991"
  },
  {
    "city": "Duivendrecht",
    "lat": "52.3333",
    "lng": "4.9333",
    "country": "Netherlands",
    "iso2": "NL",
    "admin_name": "Noord-Holland",
    "capital": "",
    "population": "5300",
    "population_proper": "5300"
  },
  {
    "city": "Empel",
    "lat": "51.7311",
    "lng": "5.3272",
    "country": "Netherlands",
    "iso2": "NL",
    "admin_name": "Noord-Brabant",
    "capital": "",
    "population": "5160",
    "population_proper": "5160"
  },
  {
    "city": "Arnemuiden",
    "lat": "51.5000",
    "lng": "3.6667",
    "country": "Netherlands",
    "iso2": "NL",
    "admin_name": "Zeeland",
    "capital": "",
    "population": "5055",
    "population_proper": "5055"
  },
  {
    "city": "Pernis",
    "lat": "51.8833",
    "lng": "4.3833",
    "country": "Netherlands",
    "iso2": "NL",
    "admin_name": "Zuid-Holland",
    "capital": "",
    "population": "4860",
    "population_proper": "4860"
  },
  {
    "city": "Soestdijk",
    "lat": "52.1908",
    "lng": "5.2822",
    "country": "Netherlands",
    "iso2": "NL",
    "admin_name": "Utrecht",
    "capital": "",
    "population": "4830",
    "population_proper": "4830"
  },
  {
    "city": "Aerdenhout",
    "lat": "52.3644",
    "lng": "4.5972",
    "country": "Netherlands",
    "iso2": "NL",
    "admin_name": "Noord-Holland",
    "capital": "",
    "population": "4730",
    "population_proper": "4730"
  },
  {
    "city": "Munstergeleen",
    "lat": "50.9747",
    "lng": "5.8667",
    "country": "Netherlands",
    "iso2": "NL",
    "admin_name": "Limburg",
    "capital": "",
    "population": "4610",
    "population_proper": "4610"
  },
  {
    "city": "Den Dolder",
    "lat": "52.1064",
    "lng": "5.2403",
    "country": "Netherlands",
    "iso2": "NL",
    "admin_name": "Utrecht",
    "capital": "",
    "population": "4420",
    "population_proper": "4420"
  },
  {
    "city": "Rijsenhout",
    "lat": "52.2667",
    "lng": "4.7000",
    "country": "Netherlands",
    "iso2": "NL",
    "admin_name": "Noord-Holland",
    "capital": "",
    "population": "4103",
    "population_proper": "4103"
  },
  {
    "city": "Overveen",
    "lat": "52.3922",
    "lng": "4.6175",
    "country": "Netherlands",
    "iso2": "NL",
    "admin_name": "Noord-Holland",
    "capital": "minor",
    "population": "4040",
    "population_proper": "4040"
  },
  {
    "city": "Molenhoek",
    "lat": "51.7661",
    "lng": "5.8739",
    "country": "Netherlands",
    "iso2": "NL",
    "admin_name": "Limburg",
    "capital": "",
    "population": "3930",
    "population_proper": "3930"
  },
  {
    "city": "De Kwakel",
    "lat": "52.2408",
    "lng": "4.7908",
    "country": "Netherlands",
    "iso2": "NL",
    "admin_name": "Noord-Holland",
    "capital": "",
    "population": "3880",
    "population_proper": "3880"
  },
  {
    "city": "Kwintsheul",
    "lat": "52.0167",
    "lng": "4.2500",
    "country": "Netherlands",
    "iso2": "NL",
    "admin_name": "Zuid-Holland",
    "capital": "",
    "population": "3560",
    "population_proper": "3560"
  },
  {
    "city": "Heelsum",
    "lat": "51.9822",
    "lng": "5.7525",
    "country": "Netherlands",
    "iso2": "NL",
    "admin_name": "Gelderland",
    "capital": "",
    "population": "3540",
    "population_proper": "3540"
  },
  {
    "city": "Nijkerkerveen",
    "lat": "52.1950",
    "lng": "5.4667",
    "country": "Netherlands",
    "iso2": "NL",
    "admin_name": "Gelderland",
    "capital": "",
    "population": "3530",
    "population_proper": "3530"
  },
  {
    "city": "Santpoort-Zuid",
    "lat": "52.4167",
    "lng": "4.6333",
    "country": "Netherlands",
    "iso2": "NL",
    "admin_name": "Noord-Holland",
    "capital": "",
    "population": "3370",
    "population_proper": "3370"
  },
  {
    "city": "Goutum",
    "lat": "53.1786",
    "lng": "5.8064",
    "country": "Netherlands",
    "iso2": "NL",
    "admin_name": "Fryslân",
    "capital": "",
    "population": "3310",
    "population_proper": "3310"
  },
  {
    "city": "Nieuwstadt",
    "lat": "51.0333",
    "lng": "5.8667",
    "country": "Netherlands",
    "iso2": "NL",
    "admin_name": "Limburg",
    "capital": "",
    "population": "3260",
    "population_proper": "3260"
  },
  {
    "city": "Zwaag",
    "lat": "52.6679",
    "lng": "5.0757",
    "country": "Netherlands",
    "iso2": "NL",
    "admin_name": "Noord-Holland",
    "capital": "",
    "population": "3155",
    "population_proper": "3155"
  },
  {
    "city": "Oerle",
    "lat": "51.4222",
    "lng": "5.3706",
    "country": "Netherlands",
    "iso2": "NL",
    "admin_name": "Noord-Brabant",
    "capital": "",
    "population": "2940",
    "population_proper": "2940"
  },
  {
    "city": "Elden",
    "lat": "51.9667",
    "lng": "5.8833",
    "country": "Netherlands",
    "iso2": "NL",
    "admin_name": "Gelderland",
    "capital": "",
    "population": "2865",
    "population_proper": "2865"
  },
  {
    "city": "Giesbeek",
    "lat": "51.9944",
    "lng": "6.0694",
    "country": "Netherlands",
    "iso2": "NL",
    "admin_name": "Gelderland",
    "capital": "",
    "population": "2695",
    "population_proper": "2695"
  },
  {
    "city": "Boekelo",
    "lat": "52.2044",
    "lng": "6.8019",
    "country": "Netherlands",
    "iso2": "NL",
    "admin_name": "Overijssel",
    "capital": "",
    "population": "2595",
    "population_proper": "2595"
  },
  {
    "city": "Vlijmen",
    "lat": "51.6953",
    "lng": "5.2119",
    "country": "Netherlands",
    "iso2": "NL",
    "admin_name": "Noord-Brabant",
    "capital": "minor",
    "population": "2577",
    "population_proper": "2577"
  },
  {
    "city": "Bemmel",
    "lat": "51.8917",
    "lng": "5.8958",
    "country": "Netherlands",
    "iso2": "NL",
    "admin_name": "Gelderland",
    "capital": "minor",
    "population": "2532",
    "population_proper": "2532"
  },
  {
    "city": "Kralingse Veer",
    "lat": "51.9249",
    "lng": "4.5071",
    "country": "Netherlands",
    "iso2": "NL",
    "admin_name": "Zuid-Holland",
    "capital": "",
    "population": "2411",
    "population_proper": "2411"
  },
  {
    "city": "Born",
    "lat": "51.0333",
    "lng": "5.8111",
    "country": "Netherlands",
    "iso2": "NL",
    "admin_name": "Limburg",
    "capital": "",
    "population": "2405",
    "population_proper": "2405"
  },
  {
    "city": "Neerbeek",
    "lat": "50.9506",
    "lng": "5.8153",
    "country": "Netherlands",
    "iso2": "NL",
    "admin_name": "Limburg",
    "capital": "",
    "population": "2370",
    "population_proper": "2370"
  },
  {
    "city": "Boven-Hardinxveld",
    "lat": "51.8256",
    "lng": "4.8381",
    "country": "Netherlands",
    "iso2": "NL",
    "admin_name": "Zuid-Holland",
    "capital": "",
    "population": "2227",
    "population_proper": "2227"
  },
  {
    "city": "Huissen",
    "lat": "51.9333",
    "lng": "5.9333",
    "country": "Netherlands",
    "iso2": "NL",
    "admin_name": "Gelderland",
    "capital": "",
    "population": "2116",
    "population_proper": "2116"
  },
  {
    "city": "Geleen",
    "lat": "50.9667",
    "lng": "5.8333",
    "country": "Netherlands",
    "iso2": "NL",
    "admin_name": "Limburg",
    "capital": "",
    "population": "2106",
    "population_proper": "2106"
  },
  {
    "city": "Lutjebroek",
    "lat": "52.6992",
    "lng": "5.2067",
    "country": "Netherlands",
    "iso2": "NL",
    "admin_name": "Noord-Holland",
    "capital": "",
    "population": "2105",
    "population_proper": "2105"
  },
  {
    "city": "Diepenveen",
    "lat": "52.2894",
    "lng": "6.1500",
    "country": "Netherlands",
    "iso2": "NL",
    "admin_name": "Overijssel",
    "capital": "",
    "population": "2101",
    "population_proper": "2101"
  },
  {
    "city": "Haalderen",
    "lat": "51.8867",
    "lng": "5.9300",
    "country": "Netherlands",
    "iso2": "NL",
    "admin_name": "Gelderland",
    "capital": "",
    "population": "2061",
    "population_proper": "2061"
  },
  {
    "city": "Helden",
    "lat": "51.3167",
    "lng": "6.0000",
    "country": "Netherlands",
    "iso2": "NL",
    "admin_name": "Limburg",
    "capital": "",
    "population": "2015",
    "population_proper": "2015"
  },
  {
    "city": "West-Souburg",
    "lat": "51.4650",
    "lng": "3.5908",
    "country": "Netherlands",
    "iso2": "NL",
    "admin_name": "Zeeland",
    "capital": "",
    "population": "1960",
    "population_proper": "1960"
  },
  {
    "city": "Mijdrecht",
    "lat": "52.2000",
    "lng": "4.8667",
    "country": "Netherlands",
    "iso2": "NL",
    "admin_name": "Utrecht",
    "capital": "minor",
    "population": "1960",
    "population_proper": "1960"
  },
  {
    "city": "Assendelft",
    "lat": "52.4667",
    "lng": "4.7500",
    "country": "Netherlands",
    "iso2": "NL",
    "admin_name": "Noord-Holland",
    "capital": "",
    "population": "1946",
    "population_proper": "1946"
  },
  {
    "city": "Ilpendam",
    "lat": "52.4667",
    "lng": "4.9500",
    "country": "Netherlands",
    "iso2": "NL",
    "admin_name": "Noord-Holland",
    "capital": "",
    "population": "1845",
    "population_proper": "1845"
  },
  {
    "city": "Lonneker",
    "lat": "52.2506",
    "lng": "6.9119",
    "country": "Netherlands",
    "iso2": "NL",
    "admin_name": "Overijssel",
    "capital": "",
    "population": "1770",
    "population_proper": "1770"
  },
  {
    "city": "Rijpwetering",
    "lat": "52.2000",
    "lng": "4.5833",
    "country": "Netherlands",
    "iso2": "NL",
    "admin_name": "Zuid-Holland",
    "capital": "",
    "population": "1640",
    "population_proper": "1640"
  },
  {
    "city": "Halsteren",
    "lat": "51.5167",
    "lng": "4.2667",
    "country": "Netherlands",
    "iso2": "NL",
    "admin_name": "Noord-Brabant",
    "capital": "",
    "population": "1555",
    "population_proper": "1555"
  },
  {
    "city": "Berghem",
    "lat": "51.7700",
    "lng": "5.5747",
    "country": "Netherlands",
    "iso2": "NL",
    "admin_name": "Noord-Brabant",
    "capital": "",
    "population": "1550",
    "population_proper": "1550"
  },
  {
    "city": "Aadorp",
    "lat": "52.3786",
    "lng": "6.6272",
    "country": "Netherlands",
    "iso2": "NL",
    "admin_name": "Overijssel",
    "capital": "",
    "population": "1525",
    "population_proper": "1525"
  },
  {
    "city": "Hooglanderveen",
    "lat": "52.1889",
    "lng": "5.4292",
    "country": "Netherlands",
    "iso2": "NL",
    "admin_name": "Utrecht",
    "capital": "",
    "population": "1515",
    "population_proper": "1515"
  },
  {
    "city": "Grootebroek",
    "lat": "52.7000",
    "lng": "5.2167",
    "country": "Netherlands",
    "iso2": "NL",
    "admin_name": "Noord-Holland",
    "capital": "",
    "population": "1454",
    "population_proper": "1454"
  },
  {
    "city": "IJsselmonde",
    "lat": "51.9000",
    "lng": "4.5500",
    "country": "Netherlands",
    "iso2": "NL",
    "admin_name": "Zuid-Holland",
    "capital": "",
    "population": "1437",
    "population_proper": "1437"
  },
  {
    "city": "Oudshoorn",
    "lat": "52.1333",
    "lng": "4.6667",
    "country": "Netherlands",
    "iso2": "NL",
    "admin_name": "Zuid-Holland",
    "capital": "",
    "population": "1262",
    "population_proper": "1262"
  },
  {
    "city": "Oud-Vroenhoven",
    "lat": "50.8478",
    "lng": "5.6514",
    "country": "Netherlands",
    "iso2": "NL",
    "admin_name": "Limburg",
    "capital": "",
    "population": "1220",
    "population_proper": "1220"
  },
  {
    "city": "Rijnsburg",
    "lat": "52.1833",
    "lng": "4.4333",
    "country": "Netherlands",
    "iso2": "NL",
    "admin_name": "Zuid-Holland",
    "capital": "",
    "population": "1171",
    "population_proper": "1171"
  },
  {
    "city": "Heer",
    "lat": "50.8406",
    "lng": "5.7269",
    "country": "Netherlands",
    "iso2": "NL",
    "admin_name": "Limburg",
    "capital": "",
    "population": "1152",
    "population_proper": "1152"
  },
  {
    "city": "Nieuwendam",
    "lat": "52.3917",
    "lng": "4.9406",
    "country": "Netherlands",
    "iso2": "NL",
    "admin_name": "Noord-Holland",
    "capital": "",
    "population": "1120",
    "population_proper": "1120"
  },
  {
    "city": "Ubach over Worms",
    "lat": "50.9167",
    "lng": "6.0500",
    "country": "Netherlands",
    "iso2": "NL",
    "admin_name": "Limburg",
    "capital": "",
    "population": "1100",
    "population_proper": "1100"
  },
  {
    "city": "Limbricht",
    "lat": "51.0117",
    "lng": "5.8369",
    "country": "Netherlands",
    "iso2": "NL",
    "admin_name": "Limburg",
    "capital": "",
    "population": "1100",
    "population_proper": "1100"
  },
  {
    "city": "Driehuis",
    "lat": "52.4472",
    "lng": "4.6367",
    "country": "Netherlands",
    "iso2": "NL",
    "admin_name": "Noord-Holland",
    "capital": "",
    "population": "1080",
    "population_proper": "1080"
  },
  {
    "city": "Zwammerdam",
    "lat": "52.1058",
    "lng": "4.7272",
    "country": "Netherlands",
    "iso2": "NL",
    "admin_name": "Zuid-Holland",
    "capital": "",
    "population": "1052",
    "population_proper": "1052"
  },
  {
    "city": "Hoensbroek",
    "lat": "50.9208",
    "lng": "5.9267",
    "country": "Netherlands",
    "iso2": "NL",
    "admin_name": "Limburg",
    "capital": "",
    "population": "1043",
    "population_proper": "1043"
  },
  {
    "city": "Ellecom",
    "lat": "52.0333",
    "lng": "6.0833",
    "country": "Netherlands",
    "iso2": "NL",
    "admin_name": "Gelderland",
    "capital": "",
    "population": "1035",
    "population_proper": "1035"
  },
  {
    "city": "Bentveld",
    "lat": "52.3658",
    "lng": "4.5717",
    "country": "Netherlands",
    "iso2": "NL",
    "admin_name": "Noord-Holland",
    "capital": "",
    "population": "1025",
    "population_proper": "1025"
  },
  {
    "city": "Boukoul",
    "lat": "51.2167",
    "lng": "6.0500",
    "country": "Netherlands",
    "iso2": "NL",
    "admin_name": "Limburg",
    "capital": "",
    "population": "1010",
    "population_proper": "1010"
  },
  {
    "city": "Hoogkarspel",
    "lat": "52.6947",
    "lng": "5.1778",
    "country": "Netherlands",
    "iso2": "NL",
    "admin_name": "Noord-Holland",
    "capital": "minor",
    "population": "884",
    "population_proper": "884"
  },
  {
    "city": "Bovenkarspel",
    "lat": "52.7000",
    "lng": "5.2500",
    "country": "Netherlands",
    "iso2": "NL",
    "admin_name": "Noord-Holland",
    "capital": "minor",
    "population": "773",
    "population_proper": "773"
  },
  {
    "city": "Zuid-Scharwoude",
    "lat": "52.6833",
    "lng": "4.8167",
    "country": "Netherlands",
    "iso2": "NL",
    "admin_name": "Noord-Holland",
    "capital": "minor",
    "population": "642",
    "population_proper": "642"
  },
  {
    "city": "Poortugaal",
    "lat": "51.8667",
    "lng": "4.4000",
    "country": "Netherlands",
    "iso2": "NL",
    "admin_name": "Zuid-Holland",
    "capital": "minor",
    "population": "640",
    "population_proper": "640"
  },
  {
    "city": "Odijk",
    "lat": "52.0503",
    "lng": "5.2333",
    "country": "Netherlands",
    "iso2": "NL",
    "admin_name": "Utrecht",
    "capital": "minor",
    "population": "339",
    "population_proper": "339"
  }
]
